{
  "msg": "操作成功",
  "code": 1,
  "data": [
    {
      "id": 1,
      "storeName": "Sunny Book Cafe",
      "storeNo": "UKL058932",
      "city": "London-",
      "address": "48 Oakwood Ave, London, E17 9PY, UK",
      "countryCode": "UK",
      "countryName": "United Kingdom",
      "storeType": "Cafe",
      "channelType": "Chain Store",
      "storeLevelName": "Premium",
      "monthSales": "12500",
      "supervisionName": "Emma Wilson",
      "province": "England",
      "area": "Waltham Forest",
      "phoneNumber": "+44 20 8521 7643",
      "storeCategory": "Book Cafe",
      "mainImgUrl": "https://picsum.photos/200/200",
      "img1Url": "https://picsum.photos/200/200",
      "img2Url": "https://picsum.photos/200/200",
      "img3Url": "https://picsum.photos/200/200",
      "img4Url": "https://picsum.photos/200/200",
      "img5Url": "https://picsum.photos/200/200",
      "googleStoreLink": "https://www.google.com/maps/search/?api=1&query=Sunny%20Book%20Cafe&query_place_id=ChIJN1eT2uNEdkgR0E2GQ5q4AaM",
      "postalCode": "E17 9PY",
      "lat": 51.583271,
      "lng": -0.014562,
      "own": 0
    },
    {
      "id": 2,
      "storeName": "Green Grocer Mart",
      "storeNo": "DEB092345",
      "city": "Berlin-",
      "address": "123 Rosenstrasse, Berlin, 10178, Germany",
      "countryCode": "DE",
      "countryName": "Germany",
      "storeType": "Grocery",
      "channelType": "Independent Store",
      "storeLevelName": "Standard",
      "monthSales": "8900",
      "supervisionName": "Hans Mueller",
      "province": "Berlin",
      "area": "Mitte",
      "phoneNumber": "+49 30 2345 6789",
      "storeCategory": "Organic Food",
      "mainImgUrl": "https://picsum.photos/200/200",
      "img1Url": "https://picsum.photos/200/200",
      "img2Url": "https://picsum.photos/200/200",
      "img3Url": "https://picsum.photos/200/200",
      "img4Url": "https://picsum.photos/200/200",
      "img5Url": "https://picsum.photos/200/200",
      "googleStoreLink": "https://www.google.com/maps/search/?api=1&query=Green%20Grocer%20Mart&query_place_id=ChIJAZl7w3tJqEcR2tOeXhE3xS0",
      "postalCode": "10178",
      "lat": 52.520007,
      "lng": 13.404954,
      "own": 1
    },
    {
      "id": 3,
      "storeName": "Blue Wave Surf Shop",
      "storeNo": "AUS125678",
      "city": "Sydney-",
      "address": "78 Beach Road, Bondi, NSW 2026, Australia",
      "countryCode": "AU",
      "countryName": "Australia",
      "storeType": "Sports",
      "channelType": "Independent Store",
      "storeLevelName": "",
      "monthSales": "15600",
      "supervisionName": "Liam Davis",
      "province": "New South Wales",
      "area": "Bondi Beach",
      "phoneNumber": "+61 2 9387 6543",
      "storeCategory": "Surf Equipment",
      "mainImgUrl": "https://picsum.photos/200/200",
      "img1Url": "https://picsum.photos/200/200",
      "img2Url": "https://picsum.photos/200/200",
      "img3Url": "https://picsum.photos/200/200",
      "img4Url": "https://picsum.photos/200/200",
      "img5Url": "https://picsum.photos/200/200",
      "googleStoreLink": "https://www.google.com/maps/search/?api=1&query=Blue%20Wave%20Surf%20Shop&query_place_id=ChIJH5Z3s4q6EmsR7T0G3J8n4x8",
      "postalCode": "2026",
      "lat": -33.890542,
      "lng": 151.274856,
      "own": 1
    },
    {
      "id": 4,
      "storeName": "Red Star Electronics",
      "storeNo": "JPN456789",
      "city": "Tokyo-",
      "address": "56 Shibuya Crossing, Shibuya City, Tokyo 150-0002, Japan",
      "countryCode": "JP",
      "countryName": "Japan",
      "storeType": "Electronics",
      "channelType": "Chain Store",
      "storeLevelName": "Platinum",
      "monthSales": "28900",
      "supervisionName": "Yuki Tanaka",
      "province": "Tokyo",
      "area": "Shibuya",
      "phoneNumber": "+81 3 3463 5678",
      "storeCategory": "Electronics Retail",
      "mainImgUrl": "https://picsum.photos/200/200",
      "img1Url": "https://picsum.photos/200/200",
      "img2Url": "https://picsum.photos/200/200",
      "img3Url": "https://picsum.photos/200/200",
      "img4Url": "https://picsum.photos/200/200",
      "img5Url": "https://picsum.photos/200/200",
      "googleStoreLink": "https://www.google.com/maps/search/?api=1&query=Red%20Star%20Electronics&query_place_id=ChIJzWXFYYuXGGAR3u5t07ae9c8",
      "postalCode": "150-0002",
      "lat": 35.658581,
      "lng": 139.701331,
      "own": 0
    },
    {
      "id": 5,
      "storeName": "Golden Leaf Tea House",
      "storeNo": "CHN789012",
      "city": "Shanghai-",
      "address": "89 Nanjing Road, Huangpu District, Shanghai 200001, China",
      "countryCode": "CN",
      "countryName": "China",
      "storeType": "Restaurant",
      "channelType": "Independent Store",
      "storeLevelName": "Luxury",
      "monthSales": "21300",
      "supervisionName": "Zhang Wei",
      "province": "Shanghai",
      "area": "Huangpu",
      "phoneNumber": "+86 21 6321 8907",
      "storeCategory": "Tea House",
      "mainImgUrl": "https://picsum.photos/200/200",
      "img1Url": "https://picsum.photos/200/200",
      "img2Url": "https://picsum.photos/200/200",
      "img3Url": "https://picsum.photos/200/200",
      "img4Url": "https://picsum.photos/200/200",
      "img5Url": "https://picsum.photos/200/200",
      "googleStoreLink": "https://www.google.com/maps/search/?api=1&query=Golden%20Leaf%20Tea%20House&query_place_id=ChIJfZ8_9uW8yEcR8YjI7e4G9d0",
      "postalCode": "200001",
      "lat": 31.230416,
      "lng": 121.473701,
      "own": 1
    },
    {
      "id": 6,
      "storeName": "Purple Moon Boutique",
      "storeNo": "FRA345678",
      "city": "Paris-",
      "address": "45 Rue du Faubourg, Paris 75008, France",
      "countryCode": "FR",
      "countryName": "France",
      "storeType": "Fashion",
      "channelType": "Independent Store",
      "storeLevelName": "Premium",
      "monthSales": "32400",
      "supervisionName": "Sophie Laurent",
      "province": "Île-de-France",
      "area": "8th Arrondissement",
      "phoneNumber": "+33 1 42 60 78 90",
      "storeCategory": "Clothing",
      "mainImgUrl": "https://picsum.photos/200/200",
      "img1Url": "https://picsum.photos/200/200",
      "img2Url": "https://picsum.photos/200/200",
      "img3Url": "https://picsum.photos/200/200",
      "img4Url": "https://picsum.photos/200/200",
      "img5Url": "https://picsum.photos/200/200",
      "googleStoreLink": "https://www.google.com/maps/search/?api=1&query=Purple%20Moon%20Boutique&query_place_id=ChIJW5e3dM7u5kcRuyOkJ6x5sF0",
      "postalCode": "75008",
      "lat": 48.866667,
      "lng": 2.333333,
      "own": 0
    },
    {
      "id": 7,
      "storeName": "Orange Bike Rental",
      "storeNo": "ESP567890",
      "city": "Barcelona-",
      "address": "23 La Rambla, Barcelona 08002, Spain",
      "countryCode": "ES",
      "countryName": "Spain",
      "storeType": "Sports",
      "channelType": "Chain Store",
      "storeLevelName": "Standard",
      "monthSales": "9800",
      "supervisionName": "Carlos Rodriguez",
      "province": "Catalonia",
      "area": "Ciutat Vella",
      "phoneNumber": "+34 93 456 78 90",
      "storeCategory": "Bike Rental",
      "mainImgUrl": "https://picsum.photos/200/200",
      "img1Url": "https://picsum.photos/200/200",
      "img2Url": "https://picsum.photos/200/200",
      "img3Url": "https://picsum.photos/200/200",
      "img4Url": "https://picsum.photos/200/200",
      "img5Url": "https://picsum.photos/200/200",
      "googleStoreLink": "https://www.google.com/maps/search/?api=1&query=Orange%20Bike%20Rental&query_place_id=ChIJfU8A9vXvQg0R7w0XQ9j2y34",
      "postalCode": "08002",
      "lat": 41.385064,
      "lng": 2.173403,
      "own": 1
    },
    {
      "id": 8,
      "storeName": "Silver Hammer Hardware",
      "storeNo": "CAN890123",
      "city": "Toronto-",
      "address": "67 Yonge Street, Toronto, ON M5E 1E5, Canada",
      "countryCode": "CA",
      "countryName": "Canada",
      "storeType": "Hardware",
      "channelType": "Independent Store",
      "storeLevelName": "",
      "monthSales": "14300",
      "supervisionName": "Michael Johnson",
      "province": "Ontario",
      "area": "Downtown Toronto",
      "phoneNumber": "+1 416 555 1234",
      "storeCategory": "Home Improvement",
      "mainImgUrl": "https://picsum.photos/200/200",
      "img1Url": "https://picsum.photos/200/200",
      "img2Url": "https://picsum.photos/200/200",
      "img3Url": "https://picsum.photos/200/200",
      "img4Url": "https://picsum.photos/200/200",
      "img5Url": "https://picsum.photos/200/200",
      "googleStoreLink": "https://www.google.com/maps/search/?api=1&query=Silver%20Hammer%20Hardware&query_place_id=ChIJpTvG15DL1IkRd8S0KlBVNTI",
      "postalCode": "M5E 1E5",
      "lat": 43.653226,
      "lng": -79.383184,
      "own": 1
    },
    {
      "id": 9,
      "storeName": "Black Cat Pet Shop",
      "storeNo": "ITA234567",
      "city": "Rome-",
      "address": "34 Via del Corso, Rome 00187, Italy",
      "countryCode": "IT",
      "countryName": "Italy",
      "storeType": "Pet Supplies",
      "channelType": "Chain Store",
      "storeLevelName": "Standard",
      "monthSales": "7600",
      "supervisionName": "Marco Rossi",
      "province": "Lazio",
      "area": "Rome",
      "phoneNumber": "+39 06 7890 1234",
      "storeCategory": "Pet Store",
      "mainImgUrl": "https://picsum.photos/200/200",
      "img1Url": "https://picsum.photos/200/200",
      "img2Url": "https://picsum.photos/200/200",
      "img3Url": "https://picsum.photos/200/200",
      "img4Url": "https://picsum.photos/200/200",
      "img5Url": "https://picsum.photos/200/200",
      "googleStoreLink": "https://www.google.com/maps/search/?api=1&query=Black%20Cat%20Pet%20Shop&query_place_id=ChIJx1_6dXAWfkcR3l_3G2wL7dQ",
      "postalCode": "00187",
      "lat": 41.902783,
      "lng": 12.496366,
      "own": 0
    },
    {
      "id": 10,
      "storeName": "Rainbow Kids Store",
      "storeNo": "BRA678901",
      "city": "Rio de Janeiro-",
      "address": "56 Copacabana Beach, Rio de Janeiro, RJ 22021-001, Brazil",
      "countryCode": "BR",
      "countryName": "Brazil",
      "storeType": "Retail",
      "channelType": "Independent Store",
      "storeLevelName": "Premium",
      "monthSales": "11200",
      "supervisionName": "Maria Silva",
      "province": "Rio de Janeiro",
      "area": "Copacabana",
      "phoneNumber": "+55 21 2547 8901",
      "storeCategory": "Children's Products",
      "mainImgUrl": "https://picsum.photos/200/200",
      "img1Url": "https://picsum.photos/200/200",
      "img2Url": "https://picsum.photos/200/200",
      "img3Url": "https://picsum.photos/200/200",
      "img4Url": "https://picsum.photos/200/200",
      "img5Url": "https://picsum.photos/200/200",
      "googleStoreLink": "https://www.google.com/maps/search/?api=1&query=Rainbow%20Kids%20Store&query_place_id=ChIJc5D1GxZ_rJQR3pPZJn2Xx6M",
      "postalCode": "22021-001",
      "lat": -22.971111,
      "lng": -43.182222,
      "own": 1
    }
  ],
  "time": 1763445954
}